name	lat	lon	coordinates	note	Geonames_url	Trismegistos_url	"page_url"
Abiar	30.83844	30.86376 	30.83844, 30.86376 		https://www.geonames.org/361886		"p. [[https://gallica.bnf.fr/ark:/12148/bpt6k55516z/f95|66]]"
Abou-Nechabêh	30.37087	30.8561 	30.37087, 30.8561 		https://www.geonames.org/362302		"p. [[https://gallica.bnf.fr/ark:/12148/bpt6k55516z/f99|70]]"
Aboukir	31.31104	30.06121 	31.31104, 30.06121 		https://www.geonames.org/362288	https://www.trismegistos.org/place/1001	"p. [[https://gallica.bnf.fr/ark:/12148/bpt6k55516z/f77|52]]"
Aboulkhaous	30.59413	30.80712 	30.59413, 30.80712 	Note : identification incertaine.	https://www.geonames.org/362887		"p. [[https://gallica.bnf.fr/ark:/12148/bpt6k55516z/f96|67]]"
Abousir	30.94545	29.51891 	30.94545, 29.51891 		https://www.geonames.org/9781955	https://www.trismegistos.org/place/2260	"p. [[https://gallica.bnf.fr/ark:/12148/bpt6k55516z/f41|18]]"
Abydos	26.18627	31.91606 	26.18627, 31.91606 		https://www.geonames.org/11495800	https://www.trismegistos.org/place/34	"p. [[https://gallica.bnf.fr/ark:/12148/bpt6k55516z/f117|88]]"
Afrique	7.1881	21.09375 	7.1881, 21.09375 		https://www.geonames.org/6255146		"p. [[https://gallica.bnf.fr/ark:/12148/bpt6k55516z/f30|7]], [[https://gallica.bnf.fr/ark:/12148/bpt6k55516z/f32|9]], [[https://gallica.bnf.fr/ark:/12148/bpt6k55516z/f39|16]], p. [[https://gallica.bnf.fr/ark:/12148/bpt6k55516z/f41|18]], p. [[https://gallica.bnf.fr/ark:/12148/bpt6k55516z/f47|24]], [[https://gallica.bnf.fr/ark:/12148/bpt6k55516z/f53|30]], [[https://gallica.bnf.fr/ark:/12148/bpt6k55516z/f103|74]]"
Agrigente	37.31065	13.57661 	37.31065, 13.57661 		https://www.geonames.org/2525764	https://www.trismegistos.org/place/22270	"p. [[https://gallica.bnf.fr/ark:/12148/bpt6k55516z/f38|15]], [[https://gallica.bnf.fr/ark:/12148/bpt6k55516z/f39|16]], [[https://gallica.bnf.fr/ark:/12148/bpt6k55516z/f40|17]], [[https://gallica.bnf.fr/ark:/12148/bpt6k55516z/f41|18]], [[https://gallica.bnf.fr/ark:/12148/bpt6k55516z/f53|30]]"
aiguilles de Cléopâtre	31.20098	29.89939 	31.20098, 29.89939 		https://www.geonames.org/9094660		"p. [[https://gallica.bnf.fr/ark:/12148/bpt6k55516z/f48|25]], [[https://gallica.bnf.fr/ark:/12148/bpt6k55516z/f51|28]]"
Aix	43.5283	5.44973 	43.5283, 5.44973 		https://www.geonames.org/3038354	https://www.trismegistos.org/place/20500	"p. [[https://gallica.bnf.fr/ark:/12148/bpt6k55516z/f30|7]], [[https://gallica.bnf.fr/ark:/12148/bpt6k55516z/f33|10]], [[https://gallica.bnf.fr/ark:/12148/bpt6k55516z/f34|11]], [[https://gallica.bnf.fr/ark:/12148/bpt6k55516z/f35|12]]"
Alexandrie	31.20176	29.91582 	31.20176, 29.91582 		https://www.geonames.org/361058	https://www.trismegistos.org/place/100	"p. [[https://gallica.bnf.fr/ark:/12148/bpt6k55516z/f26|3]], [[https://gallica.bnf.fr/ark:/12148/bpt6k55516z/f29|6]], [[https://gallica.bnf.fr/ark:/12148/bpt6k55516z/f36|13]], [[https://gallica.bnf.fr/ark:/12148/bpt6k55516z/f42|19]], [[https://gallica.bnf.fr/ark:/12148/bpt6k55516z/f43|20]], [[https://gallica.bnf.fr/ark:/12148/bpt6k55516z/f44|21]], [[https://gallica.bnf.fr/ark:/12148/bpt6k55516z/f45|22]], [[https://gallica.bnf.fr/ark:/12148/bpt6k55516z/f46|23]], [[https://gallica.bnf.fr/ark:/12148/bpt6k55516z/f48|25]], [[https://gallica.bnf.fr/ark:/12148/bpt6k55516z/f49|26]], [[https://gallica.bnf.fr/ark:/12148/bpt6k55516z/f50|27]], [[https://gallica.bnf.fr/ark:/12148/bpt6k55516z/f51|28]], [[https://gallica.bnf.fr/ark:/12148/bpt6k55516z/f54|31]], [[https://gallica.bnf.fr/ark:/12148/bpt6k55516z/f55|32]], [[https://gallica.bnf.fr/ark:/12148/bpt6k55516z/f56|33]], [[https://gallica.bnf.fr/ark:/12148/bpt6k55516z/f61|36]], [[https://gallica.bnf.fr/ark:/12148/bpt6k55516z/f62|37]], [[https://gallica.bnf.fr/ark:/12148/bpt6k55516z/f63|38]], [[https://gallica.bnf.fr/ark:/12148/bpt6k55516z/f66|41]], [[https://gallica.bnf.fr/ark:/12148/bpt6k55516z/f67|42]], [[https://gallica.bnf.fr/ark:/12148/bpt6k55516z/f70|45]], [[https://gallica.bnf.fr/ark:/12148/bpt6k55516z/f71|46]], [[https://gallica.bnf.fr/ark:/12148/bpt6k55516z/f72|47]], [[https://gallica.bnf.fr/ark:/12148/bpt6k55516z/f75|50]], [[https://gallica.bnf.fr/ark:/12148/bpt6k55516z/f77|52]], [[https://gallica.bnf.fr/ark:/12148/bpt6k55516z/f83|58]], [[https://gallica.bnf.fr/ark:/12148/bpt6k55516z/f103|74]], [[https://gallica.bnf.fr/ark:/12148/bpt6k55516z/f108|79]], [[https://gallica.bnf.fr/ark:/12148/bpt6k55516z/f108|79]], [[https://gallica.bnf.fr/ark:/12148/bpt6k55516z/f113|84]]"
Alkam	30.55162	30.81112 	30.55162, 30.81112 		https://www.geonames.org/360619		"p. [[https://gallica.bnf.fr/ark:/12148/bpt6k55516z/f96|67]]"
Alpes	46.41667	10	46.41667, 10 		https://www.geonames.org/2661786		"p. [[https://gallica.bnf.fr/ark:/12148/bpt6k55516z/f37|14]]"
Amrous	30.66467	30.80507 	30.66467, 30.80507 		https://www.geonames.org/360407		"p. [[https://gallica.bnf.fr/ark:/12148/bpt6k55516z/f96|67]]"
Andrinople	41.67719	26.55597 	41.67719, 26.55597 		https://www.geonames.org/747712	https://www.trismegistos.org/place/38353	"p. [[https://gallica.bnf.fr/ark:/12148/bpt6k55516z/f65|40]]"
Angleterre	52.16045	-0.70312 	52.16045, -0.70312 		https://www.geonames.org/6269131	https://www.trismegistos.org/place/19851	"p. [[https://gallica.bnf.fr/ark:/12148/bpt6k55516z/f81|56]]"
Aschmoûm	30.29735	30.97641 	30.29735, 30.97641 		https://www.geonames.org/360048	https://www.trismegistos.org/place/3716	"p. [[https://gallica.bnf.fr/ark:/12148/bpt6k55516z/f112|83]], [[https://gallica.bnf.fr/ark:/12148/bpt6k55516z/f99|70]], [[https://gallica.bnf.fr/ark:/12148/bpt6k55516z/f100|71]]"
Atféh	31.18987	30.51991 	31.18987, 30.51991 		https://www.geonames.org/361519		"p. [[https://gallica.bnf.fr/ark:/12148/bpt6k55516z/f77|52]], [[https://gallica.bnf.fr/ark:/12148/bpt6k55516z/f77|52]]"
Athènes	37.98376	23.72784 	37.98376, 23.72784 		https://www.geonames.org/264371	https://www.trismegistos.org/place/364	"p. [[https://gallica.bnf.fr/ark:/12148/bpt6k55516z/f93|64]], [[https://gallica.bnf.fr/ark:/12148/bpt6k55516z/f111|82]]"
Attariéh				Note : non identifié.			"p. [[https://gallica.bnf.fr/ark:/12148/bpt6k55516z/f96|67]]"
Autriche	47.33333	13.33333 	47.33333, 13.33333 		https://www.geonames.org/2782113	https://www.trismegistos.org/place/3292	"p. [[https://gallica.bnf.fr/ark:/12148/bpt6k55516z/f76|51]]"
Autun	46.95104	4.29869	46.95104, 4.29869 		https://www.geonames.org/3035883	https://www.trismegistos.org/place/3265	"p. [[https://gallica.bnf.fr/ark:/12148/bpt6k55516z/f30|7]]"
Auxerre	47.7975	3.56694	47.7975, 3.56694 		https://www.geonames.org/6455325	https://www.trismegistos.org/place/23636	"p. [[https://gallica.bnf.fr/ark:/12148/bpt6k55516z/f30|7]]"
Avallon	47.49	3.90833	47.49, 3.90833 		https://www.geonames.org/6451826	https://www.trismegistos.org/place/23642	"p. [[https://gallica.bnf.fr/ark:/12148/bpt6k55516z/f30|7]]"
Avignon	43.94861	4.80833	43.94861, 4.80833 		https://www.geonames.org/6455379	https://www.trismegistos.org/place/20832	"p. [[https://gallica.bnf.fr/ark:/12148/bpt6k55516z/f31 |8]]"
Babylone	30.00665	31.23194 	30.00665, 31.23194 		https://www.geonames.org/7923022	https://www.trismegistos.org/place/389	"p. [[https://gallica.bnf.fr/ark:/12148/bpt6k55516z/f120|91]]"
Bagdad	33.34058	44.40088 	33.34058, 44.40088 		https://www.geonames.org/98182	https://www.trismegistos.org/place/47862	"p. [[https://gallica.bnf.fr/ark:/12148/bpt6k55516z/f105|76]]"
Barkal	18.53333	31.83333 	18.53333, 31.83333 		https://www.geonames.org/377655	https://www.trismegistos.org/place/3453	"p. [[https://gallica.bnf.fr/ark:/12148/bpt6k55516z/f119|90]]"
Basse-Égypte	31	31	31,31		https://www.geonames.org/352260	https://www.trismegistos.org/place/2712	"p. [[https://gallica.bnf.fr/ark:/12148/bpt6k55516z/f66|41]], [[https://gallica.bnf.fr/ark:/12148/bpt6k55516z/f67|42]], [[https://gallica.bnf.fr/ark:/12148/bpt6k55516z/f109|80]], [[https://gallica.bnf.fr/ark:/12148/bpt6k55516z/f111|82]]"
Bathn-el-Bakarah				Note : non identifié.			"p. [[https://gallica.bnf.fr/ark:/12148/bpt6k55516z/f112|83]]"
Bathn-el-Baqarah				Note : non identifié.			"p. [[https://gallica.bnf.fr/ark:/12148/bpt6k55516z/f100|71]]"
Bédréschéïn	29.85	31.26667 	29.85, 31.26667 		https://www.geonames.org/361473		"p. [[https://gallica.bnf.fr/ark:/12148/bpt6k55516z/f127|98]]"
Benoufar	30.82961	30.78521 	30.82961, 30.78521 		https://www.geonames.org/358802		"p. [[https://gallica.bnf.fr/ark:/12148/bpt6k55516z/f94|65]]"
Bischtâmé	30.64029	30.80269 	30.64029, 30.80269 		https://www.geonames.org/358744		"p. [[https://gallica.bnf.fr/ark:/12148/bpt6k55516z/f96|67]]"
Boulaq	30.06041	31.23147 	30.06041, 31.23147 		https://www.geonames.org/358683		"p. [[https://gallica.bnf.fr/ark:/12148/bpt6k55516z/f102|73]], [[https://gallica.bnf.fr/ark:/12148/bpt6k55516z/f103|74]], [[https://gallica.bnf.fr/ark:/12148/bpt6k55516z/f113|84]], [[https://gallica.bnf.fr/ark:/12148/bpt6k55516z/f116|87]], [[https://gallica.bnf.fr/ark:/12148/bpt6k55516z/f120|91]]"
Brésil	-10	-55	-10, -55 		https://www.geonames.org/3469034		"p. [[https://gallica.bnf.fr/ark:/12148/bpt6k55516z/f73|48]]"
Canope	31.31104	30.06121 	31.31104, 30.06121 		https://www.geonames.org/362288	https://www.trismegistos.org/place/1001	"p. [[https://gallica.bnf.fr/ark:/12148/bpt6k55516z/f47|24]]"
cap Lochias	31.2114995	29.9053838	31.2114995,29.9053838				"p. [[https://gallica.bnf.fr/ark:/12148/bpt6k55516z/f49|26]]"
cap Rasat	32.939216	21.712142		Note : non identifié avec précision ; point le plus septentrional de la Libye.			"p. [[https://gallica.bnf.fr/ark:/12148/bpt6k55516z/f53|30]]"
Chalon	46.78112	4.85372	46.78112, 4.85372 		https://www.geonames.org/3027484	https://www.trismegistos.org/place/22924	"p. [[https://gallica.bnf.fr/ark:/12148/bpt6k55516z/f30|7]]"
Cherbourg	49.6386	-1.6147 	49.6386, -1.6147 		https://www.geonames.org/6614508	https://www.trismegistos.org/place/23828	"p. [[https://gallica.bnf.fr/ark:/12148/bpt6k55516z/f62|37]]"
Chereus				Note : non identifié.			"p. [[https://gallica.bnf.fr/ark:/12148/bpt6k55516z/f72|47]]"
Chypre	35.00304	32.98791 	35.00304, 32.98791 		https://www.geonames.org/146670	https://www.trismegistos.org/place/528	"p. [[https://gallica.bnf.fr/ark:/12148/bpt6k55516z/f61|36]]"
colonne de Pompée	31.18259	29.89643 	31.18259, 29.89643 		https://www.geonames.org/9111405		"p. [[https://gallica.bnf.fr/ark:/12148/bpt6k55516z/f42|19]], [[https://gallica.bnf.fr/ark:/12148/bpt6k55516z/f51|28]], [[https://gallica.bnf.fr/ark:/12148/bpt6k55516z/f52|29]], [[https://gallica.bnf.fr/ark:/12148/bpt6k55516z/f54|31]], [[https://gallica.bnf.fr/ark:/12148/bpt6k55516z/f57|34]], [[https://gallica.bnf.fr/ark:/12148/bpt6k55516z/f67|42]]"
Constantinople	41.01384	28.94966 	41.01384, 28.94966 		https://www.geonames.org/745044	https://www.trismegistos.org/place/478	"p. [[https://gallica.bnf.fr/ark:/12148/bpt6k55516z/f60|35]], [[https://gallica.bnf.fr/ark:/12148/bpt6k55516z/f65|40]]"
Cumono	36.01226	14.33669 	36.01226, 14.33669 		http://www.geonames.org/2562820		"p. [[https://gallica.bnf.fr/ark:/12148/bpt6k55516z/f53|30]]"
Cyrénaïque	31	22.5 	31, 22.5 		http://www.geonames.org/88252	https://www.trismegistos.org/place/529	"p. [[https://gallica.bnf.fr/ark:/12148/bpt6k55516z/f53|30]]"
Dahschour	29.8	31.23333 	29.8, 31.23333 		https://www.geonames.org/352403	https://www.trismegistos.org/place/2751	"p. [[https://gallica.bnf.fr/ark:/12148/bpt6k55516z/f117|88]]"
Damiette	31.41648	31.81332 	31.41648, 31.81332 		https://www.geonames.org/358048	https://www.trismegistos.org/place/3054	"p. [[https://gallica.bnf.fr/ark:/12148/bpt6k55516z/f100|71]], [[https://gallica.bnf.fr/ark:/12148/bpt6k55516z/f112|83]]"
Danassour	30.60707	30.81904 	30.60707, 30.81904 		https://www.geonames.org/358427		"p. [[https://gallica.bnf.fr/ark:/12148/bpt6k55516z/f96|67]]"
Déir-et-tin	29.98333	31.23333 	29.98333, 31.23333 		https://www.geonames.org/358277		"p. [[https://gallica.bnf.fr/ark:/12148/bpt6k55516z/f120|91]]"
Delta	30.85	31.2 	30.85, 31.2 		https://www.geonames.org/351037	https://www.trismegistos.org/place/2712	"p. [[https://gallica.bnf.fr/ark:/12148/bpt6k55516z/f46|23]], [[https://gallica.bnf.fr/ark:/12148/bpt6k55516z/f66|41]], [[https://gallica.bnf.fr/ark:/12148/bpt6k55516z/f78|53]], [[https://gallica.bnf.fr/ark:/12148/bpt6k55516z/f79|54]], [[https://gallica.bnf.fr/ark:/12148/bpt6k55516z/f82|57]], [[https://gallica.bnf.fr/ark:/12148/bpt6k55516z/f97|68]], [[https://gallica.bnf.fr/ark:/12148/bpt6k55516z/f99|70]], [[https://gallica.bnf.fr/ark:/12148/bpt6k55516z/f100|71]], [[https://gallica.bnf.fr/ark:/12148/bpt6k55516z/f108|79]], [[https://gallica.bnf.fr/ark:/12148/bpt6k55516z/f112|83]]"
Dendéra	26.16874	32.65719 	26.16874, 32.65719 		https://www.geonames.org/358422	https://www.trismegistos.org/place/2312	"p. [[https://gallica.bnf.fr/ark:/12148/bpt6k55516z/f117|88]]"
désert Libyque	23.56469	26.15585 	23.56469, 26.15585 		https://www.geonames.org/353306		"p. [[https://gallica.bnf.fr/ark:/12148/bpt6k55516z/f72|47]]"
Désouk	31.13259	30.64784 	31.13259, 30.64784 		https://www.geonames.org/358108		"p. [[https://gallica.bnf.fr/ark:/12148/bpt6k55516z/f81|56]], [[https://gallica.bnf.fr/ark:/12148/bpt6k55516z/f81|56]], [[https://gallica.bnf.fr/ark:/12148/bpt6k55516z/f109|80]]"
Dimischili	30.52257	30.83356 	30.52257, 30.83356 		https://www.geonames.org/358157		"p. [[https://gallica.bnf.fr/ark:/12148/bpt6k55516z/f97|68]]"
Dongola	19.18163	30.47689 	19.18163, 30.47689 		https://www.geonames.org/363417	https://www.trismegistos.org/place/5080	"p. [[https://gallica.bnf.fr/ark:/12148/bpt6k55516z/f120|91]]"
Égypte	27	30	27,30.0		https://www.geonames.org/357994	https://www.trismegistos.org/place/49	"p. [[https://gallica.bnf.fr/ark:/12148/bpt6k55516z/f24|1]], [[https://gallica.bnf.fr/ark:/12148/bpt6k55516z/f25|2]], [[https://gallica.bnf.fr/ark:/12148/bpt6k55516z/f26|3]], [[https://gallica.bnf.fr/ark:/12148/bpt6k55516z/f27|4]], [[https://gallica.bnf.fr/ark:/12148/bpt6k55516z/f28|5]], [[https://gallica.bnf.fr/ark:/12148/bpt6k55516z/f29|6]], [[https://gallica.bnf.fr/ark:/12148/bpt6k55516z/f36|13]], [[https://gallica.bnf.fr/ark:/12148/bpt6k55516z/f38|15]], [[https://gallica.bnf.fr/ark:/12148/bpt6k55516z/f43|20]], [[https://gallica.bnf.fr/ark:/12148/bpt6k55516z/f44|21]], [[https://gallica.bnf.fr/ark:/12148/bpt6k55516z/f46|23]], [[https://gallica.bnf.fr/ark:/12148/bpt6k55516z/f48|25]], [[https://gallica.bnf.fr/ark:/12148/bpt6k55516z/f49|26]], [[https://gallica.bnf.fr/ark:/12148/bpt6k55516z/f50|27]], [[https://gallica.bnf.fr/ark:/12148/bpt6k55516z/f51|28]], [[https://gallica.bnf.fr/ark:/12148/bpt6k55516z/f53|30]], [[https://gallica.bnf.fr/ark:/12148/bpt6k55516z/f61|36]], [[https://gallica.bnf.fr/ark:/12148/bpt6k55516z/f63|38]], [[https://gallica.bnf.fr/ark:/12148/bpt6k55516z/f64|39]], [[https://gallica.bnf.fr/ark:/12148/bpt6k55516z/f65|40]], [[https://gallica.bnf.fr/ark:/12148/bpt6k55516z/f66|41]], [[https://gallica.bnf.fr/ark:/12148/bpt6k55516z/f68|43]], [[https://gallica.bnf.fr/ark:/12148/bpt6k55516z/f69|44]], [[https://gallica.bnf.fr/ark:/12148/bpt6k55516z/f70|45]], [[https://gallica.bnf.fr/ark:/12148/bpt6k55516z/f107|78]], [[https://gallica.bnf.fr/ark:/12148/bpt6k55516z/f108|79]], [[https://gallica.bnf.fr/ark:/12148/bpt6k55516z/f115|86]], [[https://gallica.bnf.fr/ark:/12148/bpt6k55516z/f117|88]], [[https://gallica.bnf.fr/ark:/12148/bpt6k55516z/f118|89]]"
El-Azhar (mosquée)	30.04559	31.2627 	30.04559, 31.2627 		https://www.geonames.org/7913965		"p. [[https://gallica.bnf.fr/ark:/12148/bpt6k55516z/f108|79]]"
El-Dhahariéh	30.85159	30.76699 	30.85159, 30.76699 		https://www.geonames.org/361860		"p. [[https://gallica.bnf.fr/ark:/12148/bpt6k55516z/f94|65]]"
El-Ezbékiéh	30.85159	30.76699 	30.85159, 30.76699 		https://www.geonames.org/361860		"p. [[https://gallica.bnf.fr/ark:/12148/bpt6k55516z/f103|74]]"
El-Kérioun	31.14093	30.19081 	31.14093, 30.19081 		https://www.geonames.org/360962	https://www.trismegistos.org/place/3216	"p. [[https://gallica.bnf.fr/ark:/12148/bpt6k55516z/f77|52]]"
El-Méniéh	31.01424	30.73501 	31.01424, 30.73501 		https://www.geonames.org/352337		"p. [[https://gallica.bnf.fr/ark:/12148/bpt6k55516z/f81|56]]"
El-Méniéh-Ghénagh	31.01424	30.73501 	31.01424, 30.73501 		https://www.geonames.org/352337		"p. [[https://gallica.bnf.fr/ark:/12148/bpt6k55516z/f81|56]], [[https://gallica.bnf.fr/ark:/12148/bpt6k55516z/f88|59]]"
El-Qâthah	30.22232	30.97225 	30.22232, 30.97225 		https://www.geonames.org/360571		"p. [[https://gallica.bnf.fr/ark:/12148/bpt6k55516z/f100|71]]"
El-Ssafé	31.06584	30.72774 	31.06584, 30.72774 		https://www.geonames.org/359897		"p. [[https://gallica.bnf.fr/ark:/12148/bpt6k55516z/f81|56]]"
El-Zaïrah				Note : non identifié.			"p. [[https://gallica.bnf.fr/ark:/12148/bpt6k55516z/f96|67]]"
Éléthya	25.11952	32.79812 	25.11952, 32.79812 		https://www.geonames.org/360986	https://www.trismegistos.org/place/611	"p. [[https://gallica.bnf.fr/ark:/12148/bpt6k55516z/f97|68]]"
Embabéh	30.08333	31.21667 	30.08333, 31.21667 		https://www.geonames.org/355548		"p. [[https://gallica.bnf.fr/ark:/12148/bpt6k55516z/f113|84]], [[https://gallica.bnf.fr/ark:/12148/bpt6k55516z/f101|72]]"
Empire ottoman	41	29	41,29				"p. [[https://gallica.bnf.fr/ark:/12148/bpt6k55516z/f24|1]]"
Etbié				Note : non identifié.			"p. [[https://gallica.bnf.fr/ark:/12148/bpt6k55516z/f94|65]]"
Éthiopie	9	39.5 	9, 39.5 		https://www.geonames.org/337996	https://www.trismegistos.org/place/51	"p. [[https://gallica.bnf.fr/ark:/12148/bpt6k55516z/f119|90]], [[https://gallica.bnf.fr/ark:/12148/bpt6k55516z/f120|91]]"
Europe	48.69096	9.14062 	48.69096, 9.14062 		http://www.geonames.org/6255148	https://www.trismegistos.org/place/3229	"p. [[https://gallica.bnf.fr/ark:/12148/bpt6k55516z/f26|3]], [[https://gallica.bnf.fr/ark:/12148/bpt6k55516z/f29|6]], [[https://gallica.bnf.fr/ark:/12148/bpt6k55516z/f36|13]], [[https://gallica.bnf.fr/ark:/12148/bpt6k55516z/f44|21]], [[https://gallica.bnf.fr/ark:/12148/bpt6k55516z/f45|22]], [[https://gallica.bnf.fr/ark:/12148/bpt6k55516z/f51|28]], [[https://gallica.bnf.fr/ark:/12148/bpt6k55516z/f117|88]]"
Ezbékiéh	30.052778	31.248333 	30.052778, 31.248333 				"p. [[https://gallica.bnf.fr/ark:/12148/bpt6k55516z/f104|75]], [[https://gallica.bnf.fr/ark:/12148/bpt6k55516z/f105|76]], [[https://gallica.bnf.fr/ark:/12148/bpt6k55516z/f113|84]]"
Favignana	37.93333	12.31667 	37.93333, 12.31667 		https://www.geonames.org/2524779	https://www.trismegistos.org/place/42873	"p. [[https://gallica.bnf.fr/ark:/12148/bpt6k55516z/f39|16]]"
Fosthath	30.00286	31.24061 	30.00286, 31.24061 		https://www.geonames.org/7913023	https://www.trismegistos.org/place/389	"p. [[https://gallica.bnf.fr/ark:/12148/bpt6k55516z/f126|97]]"
Fouah	31.20365	30.54908 	31.20365, 30.54908 		https://www.geonames.org/356806	https://www.trismegistos.org/place/3648	"p. [[https://gallica.bnf.fr/ark:/12148/bpt6k55516z/f78|53]], [[https://gallica.bnf.fr/ark:/12148/bpt6k55516z/f79|54]], [[https://gallica.bnf.fr/ark:/12148/bpt6k55516z/f109|80]]"
France	46	2	46,2		https://www.geonames.org/3017382	https://www.trismegistos.org/place/693	"p. [[https://gallica.bnf.fr/ark:/12148/bpt6k55516z/f36|13]], [[https://gallica.bnf.fr/ark:/12148/bpt6k55516z/f37|14]], [[https://gallica.bnf.fr/ark:/12148/bpt6k55516z/f40|17]], [[https://gallica.bnf.fr/ark:/12148/bpt6k55516z/f46|23]], [[https://gallica.bnf.fr/ark:/12148/bpt6k55516z/f48|25]], [[https://gallica.bnf.fr/ark:/12148/bpt6k55516z/f50|27]], [[https://gallica.bnf.fr/ark:/12148/bpt6k55516z/f52|29]], [[https://gallica.bnf.fr/ark:/12148/bpt6k55516z/f53|30]], [[https://gallica.bnf.fr/ark:/12148/bpt6k55516z/f55|32]], [[https://gallica.bnf.fr/ark:/12148/bpt6k55516z/f56|33]], [[https://gallica.bnf.fr/ark:/12148/bpt6k55516z/f69|44]], [[https://gallica.bnf.fr/ark:/12148/bpt6k55516z/f73|48]], [[https://gallica.bnf.fr/ark:/12148/bpt6k55516z/f76|51]], [[https://gallica.bnf.fr/ark:/12148/bpt6k55516z/f108|79]]"
Gémialé				Note : non identifié.			"p. [[https://gallica.bnf.fr/ark:/12148/bpt6k55516z/f69|44]]"
Gênes	44.40478	8.94439 	44.40478, 8.94439 		http://www.geonames.org/3176219	https://www.trismegistos.org/place/14373	"p. [[https://gallica.bnf.fr/ark:/12148/bpt6k55516z/f37|14]], [[https://gallica.bnf.fr/ark:/12148/bpt6k55516z/f40|17]]"
Ghénagh	30.99904	30.77679 	30.99904, 30.77679 		https://www.geonames.org/355189		"p. [[https://gallica.bnf.fr/ark:/12148/bpt6k55516z/f82|57]]"
Ghêzaïeh	30.46293	30.84773 	30.46293, 30.84773 		https://www.geonames.org/355015		"p. [[https://gallica.bnf.fr/ark:/12148/bpt6k55516z/f97|68]]"
Gizéh	30.00944	31.20861 	30.00944, 31.20861 		https://www.geonames.org/360995	https://www.trismegistos.org/place/716	"p. [[https://gallica.bnf.fr/ark:/12148/bpt6k55516z/f117|88]], [[https://gallica.bnf.fr/ark:/12148/bpt6k55516z/f120|91]]"
Gobaris	31.20211	30.58573 	31.20211, 30.58573 	Note : forme donnée par la Commission d’Égypte.	https://www.geonames.org/350849		"p. [[https://gallica.bnf.fr/ark:/12148/bpt6k55516z/f79|54]]"
Gouddabé				Note : non identifié.			"p. [[https://gallica.bnf.fr/ark:/12148/bpt6k55516z/f94|65]]"
Gozzo	36.04944	14.25 	36.04944, 14.25 		https://www.geonames.org/2563049		"p. [[https://gallica.bnf.fr/ark:/12148/bpt6k55516z/f53|30]]"
Grèce	39	22	39,22		https://www.geonames.org/390903	https://www.trismegistos.org/place/762	"p. [[https://gallica.bnf.fr/ark:/12148/bpt6k55516z/f61|36]], [[https://gallica.bnf.fr/ark:/12148/bpt6k55516z/f69|44]]"
Grenoble	45.17869	5.71479 	45.17869, 5.71479 		https://www.geonames.org/3014728	https://www.trismegistos.org/place/20909	"p. [[https://gallica.bnf.fr/ark:/12148/bpt6k55516z/f29|6]]"
Haute-Égypte	26	32	26,32		https://www.geonames.org/359888	https://www.trismegistos.org/place/2766	"p. [[https://gallica.bnf.fr/ark:/12148/bpt6k55516z/f61|36]], [[https://gallica.bnf.fr/ark:/12148/bpt6k55516z/f66|41]], [[https://gallica.bnf.fr/ark:/12148/bpt6k55516z/f94|65]], [[https://gallica.bnf.fr/ark:/12148/bpt6k55516z/f119|90]]"
Héliopolis	30.10882	31.37924 	30.10882, 31.37924 		https://www.geonames.org/352262	https://www.trismegistos.org/place/761	"p. [[https://gallica.bnf.fr/ark:/12148/bpt6k55516z/f47|24]], [[https://gallica.bnf.fr/ark:/12148/bpt6k55516z/f50|27]], [[https://gallica.bnf.fr/ark:/12148/bpt6k55516z/f56|33]], [[https://gallica.bnf.fr/ark:/12148/bpt6k55516z/f57|34]], [[https://gallica.bnf.fr/ark:/12148/bpt6k55516z/f112|83]]"
Hollande	52.25	5.75 	52.25, 5.75 		https://www.geonames.org/2750405		"p. [[https://gallica.bnf.fr/ark:/12148/bpt6k55516z/f78|53]]"
Ibschadé	30.62419	30.83777 	30.62419, 30.83777 		https://www.geonames.org/355654		"p. [[https://gallica.bnf.fr/ark:/12148/bpt6k55516z/f96|67]]"
Italie	42.83333	12.83333 	42.83333, 12.83333 		https://www.geonames.org/3175395	https://www.trismegistos.org/place/932	"p. [[https://gallica.bnf.fr/ark:/12148/bpt6k55516z/f37|14]]"
Kafr-cherkaouy				Note : ce village est mentionné par la Commission d’Égypte mais Champollion indique ne pas l’avoir vu.			"p. [[https://gallica.bnf.fr/ark:/12148/bpt6k55516z/f78|53]]"
Kafr-Daouar	31.00172	30.75797 	31.00172, 30.75797 		https://www.geonames.org/354776		"p. [[https://gallica.bnf.fr/ark:/12148/bpt6k55516z/f82|57]]"
Kafr-Schaikh-Hassan	31.1571	30.61201 	31.1571, 30.61201 		https://www.geonames.org/354486		"p. [[https://gallica.bnf.fr/ark:/12148/bpt6k55516z/f79|54]]"
Kafr-Zaïât	30.8248	30.81805 	30.8248, 30.81805 		https://www.geonames.org/354365		"p. [[https://gallica.bnf.fr/ark:/12148/bpt6k55516z/f94|65]], [[https://gallica.bnf.fr/ark:/12148/bpt6k55516z/f95|66]]"
Kébrith	31.20211	30.58573 	31.20211, 30.58573 		https://www.geonames.org/350849		"p. [[https://gallica.bnf.fr/ark:/12148/bpt6k55516z/f79|54]]"
Kerioun				Note : non identifié.			"p. [[https://gallica.bnf.fr/ark:/12148/bpt6k55516z/f72|47]]"
Komm-Schérik	30.65347	30.7881 	30.65347, 30.7881 		https://www.geonames.org/353807		"p. [[https://gallica.bnf.fr/ark:/12148/bpt6k55516z/f96|67]]"
Koum-Schabbas	31.19621	30.65359 	31.19621, 30.65359 		https://www.geonames.org/349474		"p. [[https://gallica.bnf.fr/ark:/12148/bpt6k55516z/f79|54]]"
La Valette	35.89968	14.5148 	35.89968, 14.5148 		http://www.geonames.org/2562305		"p. [[https://gallica.bnf.fr/ark:/12148/bpt6k55516z/f53|30]]"
lac d’Edkou	31.24857	30.2158 	31.24857, 30.2158 		https://www.geonames.org/355627	https://www.trismegistos.org/place/11451	"p. [[https://gallica.bnf.fr/ark:/12148/bpt6k55516z/f77|52]], [[https://gallica.bnf.fr/ark:/12148/bpt6k55516z/f108|79]]"
lac Maréotis	31.24857	30.2158 	31.24857, 30.2158 		https://www.geonames.org/355627	https://www.trismegistos.org/place/11451	"p. [[https://gallica.bnf.fr/ark:/12148/bpt6k55516z/f77|52]], [[https://gallica.bnf.fr/ark:/12148/bpt6k55516z/f108|79]]"
Larnaka	34.90388	33.62153 	34.90388, 33.62153 		https://www.geonames.org/10346885		"p. [[https://gallica.bnf.fr/ark:/12148/bpt6k55516z/f47|24]], [[https://gallica.bnf.fr/ark:/12148/bpt6k55516z/f61|36]]"
Le Caire	30.06263	31.24967 	30.06263, 31.24967 		https://www.geonames.org/360630	https://www.trismegistos.org/place/2740	"p. [[https://gallica.bnf.fr/ark:/12148/bpt6k55516z/f42|19]], [[https://gallica.bnf.fr/ark:/12148/bpt6k55516z/f44|21]], [[https://gallica.bnf.fr/ark:/12148/bpt6k55516z/f61|36]], [[https://gallica.bnf.fr/ark:/12148/bpt6k55516z/f63|38]], [[https://gallica.bnf.fr/ark:/12148/bpt6k55516z/f66|41]], [[https://gallica.bnf.fr/ark:/12148/bpt6k55516z/f71|46]], [[https://gallica.bnf.fr/ark:/12148/bpt6k55516z/f71|46]], [[https://gallica.bnf.fr/ark:/12148/bpt6k55516z/f72|47]], [[https://gallica.bnf.fr/ark:/12148/bpt6k55516z/f73|48]], [[https://gallica.bnf.fr/ark:/12148/bpt6k55516z/f76|51]], [[https://gallica.bnf.fr/ark:/12148/bpt6k55516z/f77|52]], [[https://gallica.bnf.fr/ark:/12148/bpt6k55516z/f100|71]], [[https://gallica.bnf.fr/ark:/12148/bpt6k55516z/f101|72]], [[https://gallica.bnf.fr/ark:/12148/bpt6k55516z/f102|73]], [[https://gallica.bnf.fr/ark:/12148/bpt6k55516z/f102|73]], [[https://gallica.bnf.fr/ark:/12148/bpt6k55516z/f103|74]], [[https://gallica.bnf.fr/ark:/12148/bpt6k55516z/f104|75]], [[https://gallica.bnf.fr/ark:/12148/bpt6k55516z/f105|76]], [[https://gallica.bnf.fr/ark:/12148/bpt6k55516z/f108|79]], [[https://gallica.bnf.fr/ark:/12148/bpt6k55516z/f113|84]], [[https://gallica.bnf.fr/ark:/12148/bpt6k55516z/f114|85]], [[https://gallica.bnf.fr/ark:/12148/bpt6k55516z/f115|86]], [[https://gallica.bnf.fr/ark:/12148/bpt6k55516z/f117|88]], [[https://gallica.bnf.fr/ark:/12148/bpt6k55516z/f120|91]], [[https://gallica.bnf.fr/ark:/12148/bpt6k55516z/f126|97]], [[https://gallica.bnf.fr/ark:/12148/bpt6k55516z/f127|98]], [[https://gallica.bnf.fr/ark:/12148/bpt6k55516z/f112|83]]"
Létopolis	30.12303	31.13571 	30.12303, 31.13571 		https://www.geonames.org/359576	https://www.trismegistos.org/place/1245	"p. [[https://gallica.bnf.fr/ark:/12148/bpt6k55516z/f99|70]]"
Levanzo	38	12.33333 	38, 12.33333 		https://www.geonames.org/2524396	https://www.trismegistos.org/place/22307	"p. [[https://gallica.bnf.fr/ark:/12148/bpt6k55516z/f39|16]]"
Libye	28	17	28,17		https://www.geonames.org/2215636	https://www.trismegistos.org/place/1252	"p. [[https://gallica.bnf.fr/ark:/12148/bpt6k55516z/f71|46]], [[https://gallica.bnf.fr/ark:/12148/bpt6k55516z/f96|67]], [[https://gallica.bnf.fr/ark:/12148/bpt6k55516z/f99|70]]"
Lilybée	37.7992	12.4367 	37.7992, 12.4367 		https://www.geonames.org/2524245		"p. [[https://gallica.bnf.fr/ark:/12148/bpt6k55516z/f40|17]]"
Livourne	43.54427	10.32615 	43.54427, 10.32615 		https://www.geonames.org/3174659	https://www.trismegistos.org/place/45380	"p. [[https://gallica.bnf.fr/ark:/12148/bpt6k55516z/f45|22]], [[https://gallica.bnf.fr/ark:/12148/bpt6k55516z/f51|28]]"
Londres	51.50853	-0.12574 	51.50853, -0.12574 		https://www.geonames.org/2643743	https://www.trismegistos.org/place/11298	"p. [[https://gallica.bnf.fr/ark:/12148/bpt6k55516z/f24|1]], [[https://gallica.bnf.fr/ark:/12148/bpt6k55516z/f55|32]], [[https://gallica.bnf.fr/ark:/12148/bpt6k55516z/f105|76]]"
Louïéh	31.1695	30.59856 	31.1695, 30.59856 		https://www.geonames.org/357852		"p. [[https://gallica.bnf.fr/ark:/12148/bpt6k55516z/f79|54]]"
Louvre	48.86102	2.33587	48.86102, 2.33587 		https://www.geonames.org/2997319		"p. [[https://gallica.bnf.fr/ark:/12148/bpt6k55516z/f25|2]]"
Lyon	45.75889	4.84139 	45.75889, 4.84139 		https://www.geonames.org/6454573	https://www.trismegistos.org/place/3272	"p. [[https://gallica.bnf.fr/ark:/12148/bpt6k55516z/f30|7]], [[https://gallica.bnf.fr/ark:/12148/bpt6k55516z/f32|9]]https://gallica.bnf.fr/ark:/12148/bpt6k55516z/f33|10]], [["
Mâadiéh	31.24857	30.2158 	31.24857, 30.2158 		https://www.geonames.org/355627		"p. [[https://gallica.bnf.fr/ark:/12148/bpt6k55516z/f77|52]]"
Mâcon	46.31407	4.82823	46.31407, 4.82823 		https://www.geonames.org/2996882	https://www.trismegistos.org/place/23675	"p. [[https://gallica.bnf.fr/ark:/12148/bpt6k55516z/f30|7]]"
Mahhmoudiéh			31.18464, 29.88282 		https://www.geonames.org/353064		"p. [[https://gallica.bnf.fr/ark:/12148/bpt6k55516z/f71|46]], [[https://gallica.bnf.fr/ark:/12148/bpt6k55516z/f52|29]], [[https://gallica.bnf.fr/ark:/12148/bpt6k55516z/f76|51]], [[https://gallica.bnf.fr/ark:/12148/bpt6k55516z/f78|53]], [[https://gallica.bnf.fr/ark:/12148/bpt6k55516z/f108|79]]"
Malte	35.88182	14.44908 	35.88182, 14.44908 		https://www.geonames.org/2562772	https://www.trismegistos.org/place/1339	"p. [[https://gallica.bnf.fr/ark:/12148/bpt6k55516z/f41|18]], [[https://gallica.bnf.fr/ark:/12148/bpt6k55516z/f53|30]]"
Maritimo	37.97002	12.057 	37.97002, 12.057 		https://www.geonames.org/2524278		"p. [[https://gallica.bnf.fr/ark:/12148/bpt6k55516z/f39|16]], [[https://gallica.bnf.fr/ark:/12148/bpt6k55516z/f39|16]]"
Marsalla	37.7992	12.4367 	37.7992, 12.4367 		https://www.geonames.org/2524245	https://www.trismegistos.org/place/22315	"p. [[https://gallica.bnf.fr/ark:/12148/bpt6k55516z/f40|17]]"
Marseille	43.29695	5.38107 	43.29695, 5.38107 		https://www.geonames.org/2995469	https://www.trismegistos.org/place/1318	"p. [[https://gallica.bnf.fr/ark:/12148/bpt6k55516z/f31|8]], [[https://gallica.bnf.fr/ark:/12148/bpt6k55516z/f37|14]], [[https://gallica.bnf.fr/ark:/12148/bpt6k55516z/f40|17]], [[https://gallica.bnf.fr/ark:/12148/bpt6k55516z/f53|30]]"
Masallat-firaôun	31.20098	29.89939 	31.20098, 29.89939 		https://www.geonames.org/9094660		"p. [[https://gallica.bnf.fr/ark:/12148/bpt6k55516z/f48|25]]"
Massarah	29.9022	31.2894 	29.9022, 31.2894 		https://www.geonames.org/360735		"p. [[https://gallica.bnf.fr/ark:/12148/bpt6k55516z/f121|92]], [[https://gallica.bnf.fr/ark:/12148/bpt6k55516z/f125|96]], [[https://gallica.bnf.fr/ark:/12148/bpt6k55516z/f126|97]], [[https://gallica.bnf.fr/ark:/12148/bpt6k55516z/f127|98]]"
Méditerranée	36.726	17.996	36.726, 17.996 		https://www.geonames.org/363196		"p. [[https://gallica.bnf.fr/ark:/12148/bpt6k55516z/f28|5]], [[https://gallica.bnf.fr/ark:/12148/bpt6k55516z/f55|32]], [[https://gallica.bnf.fr/ark:/12148/bpt6k55516z/f63|38]]"
Méhallet-abou-Aly	31.09474	30.69539 	31.09474, 30.69539 		https://www.geonames.org/353146		"p. [[https://gallica.bnf.fr/ark:/12148/bpt6k55516z/f81|56]]"
Mêhallet-Malèg	31.15546	30.62281 	31.15546, 30.62281 		https://www.geonames.org/353128		"p. [[https://gallica.bnf.fr/ark:/12148/bpt6k55516z/f79|54]]"
Méhallet-Ssa	30.98495	30.75117 	30.98495, 30.75117 		https://www.geonames.org/353119		"p. [[https://gallica.bnf.fr/ark:/12148/bpt6k55516z/f82|57]]"
Memnonium							"p. [[https://gallica.bnf.fr/ark:/12148/bpt6k55516z/f91|62]]"
Memphis	29.86667	31.25 	29.86667, 31.25 		https://www.geonames.org/352547	https://www.trismegistos.org/place/1344	"p. [[https://gallica.bnf.fr/ark:/12148/bpt6k55516z/f115|86]], [[https://gallica.bnf.fr/ark:/12148/bpt6k55516z/f117|88]], [[https://gallica.bnf.fr/ark:/12148/bpt6k55516z/f117|88]], [[https://gallica.bnf.fr/ark:/12148/bpt6k55516z/f121|92]], [[https://gallica.bnf.fr/ark:/12148/bpt6k55516z/f123|94]], [[https://gallica.bnf.fr/ark:/12148/bpt6k55516z/f124|95]], [[https://gallica.bnf.fr/ark:/12148/bpt6k55516z/f126|97]], [[https://gallica.bnf.fr/ark:/12148/bpt6k55516z/f127|98]], [[https://gallica.bnf.fr/ark:/12148/bpt6k55516z/f131|100]]"
Méniéh-Ghénagh	31.01424	30.73501 	31.01424, 30.73501 		https://www.geonames.org/352337		"p. [[https://gallica.bnf.fr/ark:/12148/bpt6k55516z/f82|57]]"
Meniet-el-Arous	30.2189	31.02926 	30.2189, 31.02926 		https://www.geonames.org/352844		"p. [[https://gallica.bnf.fr/ark:/12148/bpt6k55516z/f100|71]]"
Mequias	30.00696	31.22503 	30.00696, 31.22503 	Note : nilomètre de Roudha.	https://www.geonames.org/7923046		"p. [[https://gallica.bnf.fr/ark:/12148/bpt6k55516z/f120|91]]"
Miniet-Sâlaméh	31.08695	30.68832 	31.08695, 30.68832 		https://www.geonames.org/352332		"p. [[https://gallica.bnf.fr/ark:/12148/bpt6k55516z/f81|56]]"
Mit-Chahaléh				Note : non identifié.			"p. [[https://gallica.bnf.fr/ark:/12148/bpt6k55516z/f94|65]]"
Mit-Rahinéh	29.85	31.25 	29.85, 31.25 		https://www.geonames.org/357025	https://www.trismegistos.org/place/1344	"p. [[https://gallica.bnf.fr/ark:/12148/bpt6k55516z/f117|88]], [[https://gallica.bnf.fr/ark:/12148/bpt6k55516z/f127|98]]"
Mit-Sâlaméh	30.32131	30.84871 	30.32131, 30.84871 	Note : identification incertaine.	https://www.geonames.org/359190		"p. [[https://gallica.bnf.fr/ark:/12148/bpt6k55516z/f99|70]], [[https://gallica.bnf.fr/ark:/12148/bpt6k55516z/f112|83]]"
Moeris (lac)	29.45979	30.59148 	29.45979, 30.59148 		https://www.geonames.org/350714	https://www.trismegistos.org/place/1384	"p. [[https://gallica.bnf.fr/ark:/12148/bpt6k55516z/f57|34]]"
mont Éryx	38.03785	12.58778 	38.03785, 12.58778 		https://www.geonames.org/2524815		"p. [[https://gallica.bnf.fr/ark:/12148/bpt6k55516z/f40|17]]"
Montélimar	44.55468	4.75469	44.55468, 4.75469 		https://www.geonames.org/2992703	https://www.trismegistos.org/place/21633	"p. [[https://gallica.bnf.fr/ark:/12148/bpt6k55516z/f31|8]]"
Moqattam	30.0217	31.30326 	30.0217, 31.30326 		https://www.geonames.org/351884		"p. [[https://gallica.bnf.fr/ark:/12148/bpt6k55516z/f100|71]], [[https://gallica.bnf.fr/ark:/12148/bpt6k55516z/f103|74]], [[https://gallica.bnf.fr/ark:/12148/bpt6k55516z/f112|83]], [[https://gallica.bnf.fr/ark:/12148/bpt6k55516z/f120|91]]"
Morée	37.62728	22.43958 	37.62728, 22.43958 		https://www.geonames.org/6697807		"p. [[https://gallica.bnf.fr/ark:/12148/bpt6k55516z/f43|20]], [[https://gallica.bnf.fr/ark:/12148/bpt6k55516z/f46|23]], [[https://gallica.bnf.fr/ark:/12148/bpt6k55516z/f52|29]], [[https://gallica.bnf.fr/ark:/12148/bpt6k55516z/f54|31]], [[https://gallica.bnf.fr/ark:/12148/bpt6k55516z/f63|38]], [[https://gallica.bnf.fr/ark:/12148/bpt6k55516z/f64|39]], [[https://gallica.bnf.fr/ark:/12148/bpt6k55516z/f65|40]], [[https://gallica.bnf.fr/ark:/12148/bpt6k55516z/f68|43]]"
musée de Lyon	45.76685	4.83355	45.76685, 4.83355 		https://www.geonames.org/12157066		"p. [[https://gallica.bnf.fr/ark:/12148/bpt6k55516z/f30|7]], [[https://gallica.bnf.fr/ark:/12148/bpt6k55516z/f30|7]], [[https://gallica.bnf.fr/ark:/12148/bpt6k55516z/f32|9]]"
Musée du Roi	48.86102	2.33587 	48.86102, 2.33587 		https://www.geonames.org/2997319		"p. [[https://gallica.bnf.fr/ark:/12148/bpt6k55516z/f70|45]]"
Musée égyptien de Florence	43.77619	11.26257 	43.77619, 11.26257 		https://www.geonames.org/7602825		"p. [[https://gallica.bnf.fr/ark:/12148/bpt6k55516z/f27|4]]"
Musée impérial de Vienne	48.20371	16.36126	48.20371, 16.36126 		https://www.geonames.org/6354990		"p. [[https://gallica.bnf.fr/ark:/12148/bpt6k55516z/f93|64]]"
Nader	30.55	30.85 	30.55, 30.85 		https://www.geonames.org/351695		"p. [[https://gallica.bnf.fr/ark:/12148/bpt6k55516z/f96|67]], [[https://gallica.bnf.fr/ark:/12148/bpt6k55516z/f111|82]]"
Naga	16.20808	33.32565 	16.20808, 33.32565 		https://www.geonames.org/9204033		"p. [[https://gallica.bnf.fr/ark:/12148/bpt6k55516z/f119|90]], [[https://gallica.bnf.fr/ark:/12148/bpt6k55516z/f120|91]]"
Naucratis	30.9	30.58333 	30.9, 30.58333 	Note : l’emplacement de la cité était encore inconnu ; Champollion évoque comme une hypothèse son identification erronée à Sumukhrat.	https://www.geonames.org/347752	https://www.trismegistos.org/place/1424	"p. [[https://gallica.bnf.fr/ark:/12148/bpt6k55516z/f80|55]]"
Navarin	36.93679	21.6863 	36.93679, 21.6863 		https://www.geonames.org/256643		"p. [[https://gallica.bnf.fr/ark:/12148/bpt6k55516z/f43|20]], [[https://gallica.bnf.fr/ark:/12148/bpt6k55516z/f54|31]], [[https://gallica.bnf.fr/ark:/12148/bpt6k55516z/f65|40]]"
Navarino	36.93679	21.6863 	36.93679, 21.6863 		https://www.geonames.org/256643		"p. [[https://gallica.bnf.fr/ark:/12148/bpt6k55516z/f108|79]]"
Nekhléh	30.91124	30.75882 	30.91124, 30.75882 	Note : identification incertaine.	https://www.geonames.org/351039		"p. [[https://gallica.bnf.fr/ark:/12148/bpt6k55516z/f94|65]]"
Nil	30.16196	31.14946 	30.16196, 31.14946 		https://www.geonames.org/351036	https://www.trismegistos.org/place/3943	"p. [[https://gallica.bnf.fr/ark:/12148/bpt6k55516z/f47|24]], [[https://gallica.bnf.fr/ark:/12148/bpt6k55516z/f52|29]], [[https://gallica.bnf.fr/ark:/12148/bpt6k55516z/f66|41]], [[https://gallica.bnf.fr/ark:/12148/bpt6k55516z/f67|42]], [[https://gallica.bnf.fr/ark:/12148/bpt6k55516z/f71|46]], [[https://gallica.bnf.fr/ark:/12148/bpt6k55516z/f78|53]], [[https://gallica.bnf.fr/ark:/12148/bpt6k55516z/f81|56]], [[https://gallica.bnf.fr/ark:/12148/bpt6k55516z/f94|65]], [[https://gallica.bnf.fr/ark:/12148/bpt6k55516z/f96|67]], [[https://gallica.bnf.fr/ark:/12148/bpt6k55516z/f99|70]], [[https://gallica.bnf.fr/ark:/12148/bpt6k55516z/f100|71]], [[https://gallica.bnf.fr/ark:/12148/bpt6k55516z/f101|72]], [[https://gallica.bnf.fr/ark:/12148/bpt6k55516z/f102|73]], [[https://gallica.bnf.fr/ark:/12148/bpt6k55516z/f108|79]], [[https://gallica.bnf.fr/ark:/12148/bpt6k55516z/f112|83]], [[https://gallica.bnf.fr/ark:/12148/bpt6k55516z/f116|87]], [[https://gallica.bnf.fr/ark:/12148/bpt6k55516z/f121|92]], [[https://gallica.bnf.fr/ark:/12148/bpt6k55516z/f127|98]], [[https://gallica.bnf.fr/ark:/12148/bpt6k55516z/f110|81]]"
Nubie	20	32	20,32		https://www.geonames.org/350981	https://www.trismegistos.org/place/11244	"p. [[https://gallica.bnf.fr/ark:/12148/bpt6k55516z/f28|5]], [[https://gallica.bnf.fr/ark:/12148/bpt6k55516z/f71|46]], [[https://gallica.bnf.fr/ark:/12148/bpt6k55516z/f119|90]]"
obélisques de Cléopâtre	31.20098	29.89939 	31.20098, 29.89939 		https://www.geonames.org/9094660		"p. [[https://gallica.bnf.fr/ark:/12148/bpt6k55516z/f52|29]], [[https://gallica.bnf.fr/ark:/12148/bpt6k55516z/f56|33]], [[https://gallica.bnf.fr/ark:/12148/bpt6k55516z/f57|34]]"
Orient	33.13906	35.85869 	33.13906, 35.85869 		http://www.geonames.org/6269133		"p. [[https://gallica.bnf.fr/ark:/12148/bpt6k55516z/f28|5]], [[https://gallica.bnf.fr/ark:/12148/bpt6k55516z/f68|43]]"
Ouardân	30.31704	30.90672 	30.31704, 30.90672 		https://www.geonames.org/346343	https://www.trismegistos.org/place/4191	"p. [[https://gallica.bnf.fr/ark:/12148/bpt6k55516z/f99|70]]"
palais de Saint-Pierre	45.76685	4.83355 	45.76685, 4.83355 		https://www.geonames.org/12157066		"p. [[https://gallica.bnf.fr/ark:/12148/bpt6k55516z/f30|7]]"
Palerme	38.11572	13.36143 	38.11572, 13.36143 		https://www.geonames.org/6542127	https://www.trismegistos.org/place/22276	"p. [[https://gallica.bnf.fr/ark:/12148/bpt6k55516z/f40|17]], [[https://gallica.bnf.fr/ark:/12148/bpt6k55516z/f53|30]]"
Paris	48.86	2.34444 	48.86, 2.34444 		https://www.geonames.org/6455259	https://www.trismegistos.org/place/3278	"p. [[https://gallica.bnf.fr/ark:/12148/bpt6k55516z/f31|8]], [[https://gallica.bnf.fr/ark:/12148/bpt6k55516z/f47|24]], [[https://gallica.bnf.fr/ark:/12148/bpt6k55516z/f64|39]], [[https://gallica.bnf.fr/ark:/12148/bpt6k55516z/f65|40]], [[https://gallica.bnf.fr/ark:/12148/bpt6k55516z/f66|41]], [[https://gallica.bnf.fr/ark:/12148/bpt6k55516z/f68|43]], [[https://gallica.bnf.fr/ark:/12148/bpt6k55516z/f69|44]], [[https://gallica.bnf.fr/ark:/12148/bpt6k55516z/f105|76]], [[https://gallica.bnf.fr/ark:/12148/bpt6k55516z/f114|85]], [[https://gallica.bnf.fr/ark:/12148/bpt6k55516z/f117|88]]"
Patras	38.24444	21.73444 	38.24444, 21.73444 		https://www.geonames.org/255683		"p. [[https://gallica.bnf.fr/ark:/12148/bpt6k55516z/f61|36]]"
Péloponnèse	37.62728	22.43958 	37.62728, 22.43958 		https://www.geonames.org/6697807	https://www.trismegistos.org/place/1659	"p. [[https://gallica.bnf.fr/ark:/12148/bpt6k55516z/f65|40]]"
Perse	32	53	32,53		https://www.geonames.org/130758	https://www.trismegistos.org/place/1704	"p. [[https://gallica.bnf.fr/ark:/12148/bpt6k55516z/f44|21]]"
Pétra				Note : non identifié.			"p. [[https://gallica.bnf.fr/ark:/12148/bpt6k55516z/f119|90]]"
Phare	31.21353	29.88559 	31.21353, 29.88559 		https://www.geonames.org/350825		"p. [[https://gallica.bnf.fr/ark:/12148/bpt6k55516z/f60|35]]"
Philippopoli	42.15	24.75 	42.15, 24.75 		https://www.geonames.org/728193		"p. [[https://gallica.bnf.fr/ark:/12148/bpt6k55516z/f65|40]]"
Piémont	45	8	45,8		https://www.geonames.org/3170831		"p. [[https://gallica.bnf.fr/ark:/12148/bpt6k55516z/f37|14]]"
Port-Vieux	31.20807	29.89453 	31.20807, 29.89453 		https://www.geonames.org/8365072		"p. [[https://gallica.bnf.fr/ark:/12148/bpt6k55516z/f54|31]]"
Porte	41	29	41,29				"p. [[https://gallica.bnf.fr/ark:/12148/bpt6k55516z/f46|23]], [[https://gallica.bnf.fr/ark:/12148/bpt6k55516z/f48|25]], [[https://gallica.bnf.fr/ark:/12148/bpt6k55516z/f65|40]], [[https://gallica.bnf.fr/ark:/12148/bpt6k55516z/f68|43]], [[https://gallica.bnf.fr/ark:/12148/bpt6k55516z/f69|44]]"
Prosopis	30.62419	30.83777 	30.62419, 30.83777 		https://www.geonames.org/355654	https://www.trismegistos.org/place/1923	"p. [[https://gallica.bnf.fr/ark:/12148/bpt6k55516z/f96|67]]"
Provence	44	6	44,6		https://www.geonames.org/2985246		"p. [[https://gallica.bnf.fr/ark:/12148/bpt6k55516z/f34|11]], [[https://gallica.bnf.fr/ark:/12148/bpt6k55516z/f37|14]]"
Pyramides	29.97723	31.13234 	29.97723, 31.13234 		https://www.geonames.org/10278887		"p. [[https://gallica.bnf.fr/ark:/12148/bpt6k55516z/f99|70]], [[https://gallica.bnf.fr/ark:/12148/bpt6k55516z/f100|71]], [[https://gallica.bnf.fr/ark:/12148/bpt6k55516z/f101|72]], [[https://gallica.bnf.fr/ark:/12148/bpt6k55516z/f112|83]], [[https://gallica.bnf.fr/ark:/12148/bpt6k55516z/f113|84]]"
Rahhmaniéh	31.10483	30.64135 	31.10483, 30.64135 		https://www.geonames.org/360150		"p. [[https://gallica.bnf.fr/ark:/12148/bpt6k55516z/f81|56]]"
Raoudha	30.02255	31.22598 	30.02255, 31.22598 		https://www.geonames.org/350173		"p. [[https://gallica.bnf.fr/ark:/12148/bpt6k55516z/f120|91]]"
Rome	41.89193	12.51133 	41.89193, 12.51133 		https://www.geonames.org/3169070	https://www.trismegistos.org/place/2058	"p. [[https://gallica.bnf.fr/ark:/12148/bpt6k55516z/f50|27]]"
Rosette	31.39951	30.41718 	31.39951, 30.41718 		https://www.geonames.org/350203	https://www.trismegistos.org/place/2059	"p. [[https://gallica.bnf.fr/ark:/12148/bpt6k55516z/f100|71]], [[https://gallica.bnf.fr/ark:/12148/bpt6k55516z/f112|83]]"
Roumélie	41.76009	24.97928 	41.76009, 24.97928 		https://www.geonames.org/727540		"p. [[https://gallica.bnf.fr/ark:/12148/bpt6k55516z/f69|44]]"
Russie	60	100	60,100.0		https://www.geonames.org/2017370		"p. [[https://gallica.bnf.fr/ark:/12148/bpt6k55516z/f48|25]]"
Saïs	30.96506	30.76899 	30.96506, 30.76899 		https://www.geonames.org/9781863	https://www.trismegistos.org/place/2072	"p. [[https://gallica.bnf.fr/ark:/12148/bpt6k55516z/f72|47]], [[https://gallica.bnf.fr/ark:/12148/bpt6k55516z/f82|57]], [[https://gallica.bnf.fr/ark:/12148/bpt6k55516z/f83|58]], [[https://gallica.bnf.fr/ark:/12148/bpt6k55516z/f90|61]], [[https://gallica.bnf.fr/ark:/12148/bpt6k55516z/f91|62]], [[https://gallica.bnf.fr/ark:/12148/bpt6k55516z/f93|64]], [[https://gallica.bnf.fr/ark:/12148/bpt6k55516z/f109|80]], [[https://gallica.bnf.fr/ark:/12148/bpt6k55516z/f110|81]], [[https://gallica.bnf.fr/ark:/12148/bpt6k55516z/f111|82]]"
Sakkara	29.85	31.21667 	29.85, 31.21667 		https://www.geonames.org/349608	https://www.trismegistos.org/place/1344	"p. [[https://gallica.bnf.fr/ark:/12148/bpt6k55516z/f88|59]], [[https://gallica.bnf.fr/ark:/12148/bpt6k55516z/f116|87]], [[https://gallica.bnf.fr/ark:/12148/bpt6k55516z/f117|88]], [[https://gallica.bnf.fr/ark:/12148/bpt6k55516z/f121|92]], [[https://gallica.bnf.fr/ark:/12148/bpt6k55516z/f127|98]]"
Sâlmiéh	31.18246	30.59483 	31.18246, 30.59483 		https://www.geonames.org/359869		"p. [[https://gallica.bnf.fr/ark:/12148/bpt6k55516z/f79|54]]"
Saouafé				Note : non idenfié.			"p. [[https://gallica.bnf.fr/ark:/12148/bpt6k55516z/f72|47]]"
Sarbout-el-Qadim				Note : non idenfié.			"p. [[https://gallica.bnf.fr/ark:/12148/bpt6k55516z/f119|90]]"
Sardaigne	40	9	40,9		https://www.geonames.org/2523227	https://www.trismegistos.org/place/3310	"p. [[https://gallica.bnf.fr/ark:/12148/bpt6k55516z/f37|14]], [[https://gallica.bnf.fr/ark:/12148/bpt6k55516z/f39|16]], [[https://gallica.bnf.fr/ark:/12148/bpt6k55516z/f39|16]], [[https://gallica.bnf.fr/ark:/12148/bpt6k55516z/f61|36]]"
Schabour	30.80283	30.78085 	30.80283, 30.78085 		https://www.geonames.org/349465		"p. [[https://gallica.bnf.fr/ark:/12148/bpt6k55516z/f95|66]], [[https://gallica.bnf.fr/ark:/12148/bpt6k55516z/f111|82]]"
Schâm	35	38	35,38		https://www.geonames.org/163843		"p. [[https://gallica.bnf.fr/ark:/12148/bpt6k55516z/f81|56]]"
Schebschir	30.52777	30.85907 	30.52777, 30.85907 		https://www.geonames.org/349467		"p. [[https://gallica.bnf.fr/ark:/12148/bpt6k55516z/f97|68]]"
Schénisséh				Note : non identifié.			"p. [[https://gallica.bnf.fr/ark:/12148/bpt6k55516z/f94|65]]"
Schobra-el-Khimiéh	30.11585	31.24555 	30.11585, 31.24555 	Note : le palais de Méhémet Ali, pas le quartier actuel du Caire qui en tire son nom	https://www.geonames.org/9972593		"p. [[https://gallica.bnf.fr/ark:/12148/bpt6k55516z/f101|72]]"
Schoraféh				Note : non identifié.			"p. [[https://gallica.bnf.fr/ark:/12148/bpt6k55516z/f100|71]], [[https://gallica.bnf.fr/ark:/12148/bpt6k55516z/f112|83]], [[https://gallica.bnf.fr/ark:/12148/bpt6k55516z/f79|54]]"
Sélinonte	37.58337	12.82522 	37.58337, 12.82522 		https://www.geonames.org/2523164	https://www.trismegistos.org/place/22286	"p. [[https://gallica.bnf.fr/ark:/12148/bpt6k55516z/f40|17]]"
Senabadéh	31.18544	30.54443 	31.18544, 30.54443 	Note : identification incertaine.	https://www.geonames.org/349667		"p. [[https://gallica.bnf.fr/ark:/12148/bpt6k55516z/f78|53]]"
Sendioun	31.18544	30.54443 	31.18544, 30.54443 	Note : identification incertaine.	https://www.geonames.org/349667		"p. [[https://gallica.bnf.fr/ark:/12148/bpt6k55516z/f78|53]]"
Sersena				Note : non identifié.		https://www.trismegistos.org/place/59346	"p. [[https://gallica.bnf.fr/ark:/12148/bpt6k55516z/f96|67]]"
Sicile	37.62304	13.93457 	37.62304, 13.93457 		https://www.geonames.org/2523118	https://www.trismegistos.org/place/2132	"p. [[https://gallica.bnf.fr/ark:/12148/bpt6k55516z/f38|15]], [[https://gallica.bnf.fr/ark:/12148/bpt6k55516z/f38|15]], [[https://gallica.bnf.fr/ark:/12148/bpt6k55516z/f39|16]], [[https://gallica.bnf.fr/ark:/12148/bpt6k55516z/f40|17]], [[https://gallica.bnf.fr/ark:/12148/bpt6k55516z/f53|30]]"
Siouph				Note : non identifié ; localité du district de Saïs, d’après Hérodote, et lieu de naissance d’Amasis.			"p. [[https://gallica.bnf.fr/ark:/12148/bpt6k55516z/f72|47]]"
Sorenbaiéh	31.19227	30.56978 	31.19227, 30.56978 		https://www.geonames.org/347727		"p. [[https://gallica.bnf.fr/ark:/12148/bpt6k55516z/f79|54]]"
Soumoukhrat	31.14503	30.6112 	31.14503, 30.6112 		https://www.geonames.org/347752		"p. [[https://gallica.bnf.fr/ark:/12148/bpt6k55516z/f80|55]]"
Ssa el-Haghar	30.96124	30.76802 	30.96124, 30.76802 		https://www.geonames.org/349983	https://www.trismegistos.org/place/2072	"p. [[https://gallica.bnf.fr/ark:/12148/bpt6k55516z/f82|57]], [[https://gallica.bnf.fr/ark:/12148/bpt6k55516z/f72|47]], [[https://gallica.bnf.fr/ark:/12148/bpt6k55516z/f109|80]], [[https://gallica.bnf.fr/ark:/12148/bpt6k55516z/f111|82]], [[https://gallica.bnf.fr/ark:/12148/bpt6k55516z/f83|58]], [[https://gallica.bnf.fr/ark:/12148/bpt6k55516z/f90|61]], [[https://gallica.bnf.fr/ark:/12148/bpt6k55516z/f93|64]]"
Suède	62	15	62,15		https://www.geonames.org/2661886	https://www.trismegistos.org/place/20271	"p. [[https://gallica.bnf.fr/ark:/12148/bpt6k55516z/f48|25]], [[https://gallica.bnf.fr/ark:/12148/bpt6k55516z/f61|36]]"
Sultan-Hassan (mosquée)	30.03201	31.25645 	30.03201, 31.25645 		https://www.geonames.org/7913951		"p. [[https://gallica.bnf.fr/ark:/12148/bpt6k55516z/f108|79]]"
Syrie	35	38	35,38		https://www.geonames.org/163843	https://www.trismegistos.org/place/2211	"p. [[https://gallica.bnf.fr/ark:/12148/bpt6k55516z/f43|20]], [[https://gallica.bnf.fr/ark:/12148/bpt6k55516z/f82|57]]"
Tain-l’Hermitage	45.06672	4.8559	45.06672, 4.8559 		https://www.geonames.org/2973531	https://www.trismegistos.org/place/21030	"p. [[https://gallica.bnf.fr/ark:/12148/bpt6k55516z/f31|8]]"
Taphosiris	30.94545	29.51891 	30.94545, 29.51891 		https://www.geonames.org/9781955	https://www.trismegistos.org/place/2260	"p. [[https://gallica.bnf.fr/ark:/12148/bpt6k55516z/f41|18]]"
Taposiris	30.94545	29.51891 	30.94545, 29.51891 		https://www.geonames.org/9781955	https://www.trismegistos.org/place/2260	"p. [[https://gallica.bnf.fr/ark:/12148/bpt6k55516z/f41|18]], [[https://gallica.bnf.fr/ark:/12148/bpt6k55516z/f53|30]]"
Tarse	36.91766	34.89277 	36.91766, 34.89277 		https://www.geonames.org/299817	https://www.trismegistos.org/place/2269	"p. [[https://gallica.bnf.fr/ark:/12148/bpt6k55516z/f108|79]]"
Tartare							"p. [[https://gallica.bnf.fr/ark:/12148/bpt6k55516z/f114|85]]"
Thannasch	30.12679	31.19703	30.12679, 31.19703 		https://www.geonames.org/7926614		"p. [[https://gallica.bnf.fr/ark:/12148/bpt6k55516z/f101|72]]"
Thanoub	30.68935	30.80042 	30.68935, 30.80042 		https://www.geonames.org/347197		"p. [[https://gallica.bnf.fr/ark:/12148/bpt6k55516z/f96|67]]"
Thanth	30.78847	31.00192 	30.78847, 31.00192 		https://www.geonames.org/347497	https://www.trismegistos.org/place/3075	"p. [[https://gallica.bnf.fr/ark:/12148/bpt6k55516z/f95|66]]"
Tharranéh	30.78847	31.00192 	30.78847, 31.00192 		https://www.geonames.org/347497	https://www.trismegistos.org/place/3075	"p. [[https://gallica.bnf.fr/ark:/12148/bpt6k55516z/f112|83]]"
Thèbes	25.7	32.68333 	25.7, 32.68333 		https://www.geonames.org/347342	https://www.trismegistos.org/place/1341	"p. [[https://gallica.bnf.fr/ark:/12148/bpt6k55516z/f26|3]], [[https://gallica.bnf.fr/ark:/12148/bpt6k55516z/f35|12]], [[https://gallica.bnf.fr/ark:/12148/bpt6k55516z/f83|58]], [[https://gallica.bnf.fr/ark:/12148/bpt6k55516z/f91|62]], [[https://gallica.bnf.fr/ark:/12148/bpt6k55516z/f103|74]], [[https://gallica.bnf.fr/ark:/12148/bpt6k55516z/f110|81]], [[https://gallica.bnf.fr/ark:/12148/bpt6k55516z/f117|88]]"
Therranêh	30.43518	30.83722 	30.43518, 30.83722 		https://www.geonames.org/359700		"p. [[https://gallica.bnf.fr/ark:/12148/bpt6k55516z/f97|68]]"
Thorrah	29.93333	31.28333 	29.93333, 31.28333 		https://www.geonames.org/347192	https://www.trismegistos.org/place/2480	"p. [[https://gallica.bnf.fr/ark:/12148/bpt6k55516z/f121|92]], [[https://gallica.bnf.fr/ark:/12148/bpt6k55516z/f125|96]], [[https://gallica.bnf.fr/ark:/12148/bpt6k55516z/f126|97]]"
Thouloun (mosquée)	30.02874	31.24963 	30.02874, 31.24963 		https://www.geonames.org/7922805		"p. [[https://gallica.bnf.fr/ark:/12148/bpt6k55516z/f108|79]], [[https://gallica.bnf.fr/ark:/12148/bpt6k55516z/f114|85]]"
Toscane	43.41667	11	43.41667, 11 		https://www.geonames.org/3165361		"p. [[https://gallica.bnf.fr/ark:/12148/bpt6k55516z/f44|21]], [[https://gallica.bnf.fr/ark:/12148/bpt6k55516z/f35|12]], [[https://gallica.bnf.fr/ark:/12148/bpt6k55516z/f45|22]], [[https://gallica.bnf.fr/ark:/12148/bpt6k55516z/f47|24]], [[https://gallica.bnf.fr/ark:/12148/bpt6k55516z/f76|51]], [[https://gallica.bnf.fr/ark:/12148/bpt6k55516z/f130|99]]"
Toulon	43.125	5.93056 	43.125, 5.93056 		https://www.geonames.org/6612862	https://www.trismegistos.org/place/21742	"p. [[https://gallica.bnf.fr/ark:/12148/bpt6k55516z/f26|3]], [[https://gallica.bnf.fr/ark:/12148/bpt6k55516z/f28|5]], [[https://gallica.bnf.fr/ark:/12148/bpt6k55516z/f29|6]], [[https://gallica.bnf.fr/ark:/12148/bpt6k55516z/f32|9]], [[https://gallica.bnf.fr/ark:/12148/bpt6k55516z/f34|11]], [[https://gallica.bnf.fr/ark:/12148/bpt6k55516z/f38|15]], [[https://gallica.bnf.fr/ark:/12148/bpt6k55516z/f40|17]], [[https://gallica.bnf.fr/ark:/12148/bpt6k55516z/f64|39]], [[https://gallica.bnf.fr/ark:/12148/bpt6k55516z/f65|40]], [[https://gallica.bnf.fr/ark:/12148/bpt6k55516z/f66|41]], [[https://gallica.bnf.fr/ark:/12148/bpt6k55516z/f68|43]]"
Trapani	38.01604	12.54443 	38.01604, 12.54443 		https://www.geonames.org/6542155	https://www.trismegistos.org/place/22351	"p. [[https://gallica.bnf.fr/ark:/12148/bpt6k55516z/f39|16]]"
Turin	45.07049	7.68682 	45.07049, 7.68682 		https://www.geonames.org/3165524	https://www.trismegistos.org/place/19897	"p. [[https://gallica.bnf.fr/ark:/12148/bpt6k55516z/f26|3]], [[https://gallica.bnf.fr/ark:/12148/bpt6k55516z/f62|37]]"
Valence	44.9256	4.90956	44.9256, 4.90956 		https://www.geonames.org/2971053	https://www.trismegistos.org/place/21444	"p. [[https://gallica.bnf.fr/ark:/12148/bpt6k55516z/f31|8]]"
Vieux-Caire	30.00737	31.23927 	30.00737, 31.23927 		https://www.geonames.org/352261	https://www.trismegistos.org/place/389	"p. [[https://gallica.bnf.fr/ark:/12148/bpt6k55516z/f120|91]]"
Zaïât	30.8248	30.81805 	30.8248, 30.81805 		https://www.geonames.org/354365		"p. [[https://gallica.bnf.fr/ark:/12148/bpt6k55516z/f95|66]]"
Zaouïet-el-Baglé	30.6231	30.80501 	30.6231, 30.80501 		https://www.geonames.org/346108		"p. [[https://gallica.bnf.fr/ark:/12148/bpt6k55516z/f96|67]]"
Zaouïet-Rézin	30.41248	30.85316 	30.41248, 30.85316 		https://www.geonames.org/346076		"p. [[https://gallica.bnf.fr/ark:/12148/bpt6k55516z/f97|68]], [[https://gallica.bnf.fr/ark:/12148/bpt6k55516z/f98|69]], [[https://gallica.bnf.fr/ark:/12148/bpt6k55516z/f99|70]]"
Ναυκρατίς	30.9	30.58333 	30.9, 30.58333 		https://www.geonames.org/347752	https://www.trismegistos.org/place/1424	"p. [[https://gallica.bnf.fr/ark:/12148/bpt6k55516z/f80|55]]"
Σιούφ				Note : non identifié.			"p. [[https://gallica.bnf.fr/ark:/12148/bpt6k55516z/f81|56]]"
Χερεῦ				Note : non identifié.			"p. [[https://gallica.bnf.fr/ark:/12148/bpt6k55516z/f72|47]]"
ⲑⲉⲣⲉⲛⲟⲩϯ	30.43518	30.83722 	30.43518, 30.83722 		https://www.geonames.org/359700		"p. [[https://gallica.bnf.fr/ark:/12148/bpt6k55516z/f97|68]]"
ⲗⲁⲕⲁⲛ	30.55162	30.81112 	30.55162, 30.81112 		https://www.geonames.org/360619		"p. [[https://gallica.bnf.fr/ark:/12148/bpt6k55516z/f96|67]]"
ⲙⲉⲗⲁϫ	31.15546	30.62281 	31.15546, 30.62281 		https://www.geonames.org/353128		"p. [[https://gallica.bnf.fr/ark:/12148/bpt6k55516z/f79|54]]"
ⲡϣⲁϯ	30.62419	30.83777 	30.62419, 30.83777 		https://www.geonames.org/355654		"p. [[https://gallica.bnf.fr/ark:/12148/bpt6k55516z/f96|67]]"
ⲧⲁⲛⲧⲁⲑⲟ	30.78847	31.00192 	30.78847, 31.00192 		https://www.geonames.org/347497		"p. [[https://gallica.bnf.fr/ark:/12148/bpt6k55516z/f95|66]]"
ⲧⲉⲣⲉⲛⲟⲩⲧⲉ	30.43518	30.83722 	30.43518, 30.83722 		https://www.geonames.org/359700		"p. [[https://gallica.bnf.fr/ark:/12148/bpt6k55516z/f97|68]]"
ⲯⲁⲣⲥⲓⲛⲉ				Note : non identifié.			"p. [[https://gallica.bnf.fr/ark:/12148/bpt6k55516z/f96|67]]"
ϩⲁϩϣⲏⲓ	30.83844	30.86376 	30.83844, 30.86376 		https://www.geonames.org/361886		"p. [[https://gallica.bnf.fr/ark:/12148/bpt6k55516z/f95|66]]"
ϫⲁⲡⲁⲥⲉⲛ	31.19621	30.65359 	31.19621, 30.65359 		https://www.geonames.org/349474		"p. [[https://gallica.bnf.fr/ark:/12148/bpt6k55516z/f79|54]]"
ϭⲙⲟⲩⲙ	30.29735	30.97641 	30.29735, 30.97641 		https://www.geonames.org/360048		"p. [[https://gallica.bnf.fr/ark:/12148/bpt6k55516z/f99|70]]"
ϭⲙⲟⲩⲙ	30.29735	30.97641 	30.29735, 30.97641 		https://www.geonames.org/360048		"p. [[https://gallica.bnf.fr/ark:/12148/bpt6k55516z/f100|71]]"
ϯⲙⲓϣⲗⲏ	30.52257	30.83356 	30.52257, 30.83356 		https://www.geonames.org/358157		"p. [[https://gallica.bnf.fr/ark:/12148/bpt6k55516z/f97|68]]"
ابشادى	30.62419	30.83777 	30.62419, 30.83777 		https://www.geonames.org/355654		"p. [[https://gallica.bnf.fr/ark:/12148/bpt6k55516z/f96|67]]"
ابو نشابه	30.62419	30.83777 	30.62419, 30.83777 		https://www.geonames.org/355654		"p. [[https://gallica.bnf.fr/ark:/12148/bpt6k55516z/f99|70]]"
ابيار	30.83844	30.86376 	30.83844, 30.86376 		https://www.geonames.org/361886		"p. [[https://gallica.bnf.fr/ark:/12148/bpt6k55516z/f95|66]]"
اشمون	30.29735	30.97641 	30.29735, 30.97641 		https://www.geonames.org/360048		"p. [[https://gallica.bnf.fr/ark:/12148/bpt6k55516z/f99|70]]"
الزعيلة				Note : le manuscrit porte la graphie الرعيله  Az-Zaʿylah qui semble être corrigée en الرعيره Az-Zaʿyrah, sans les point du zayn (https://gallica.bnf.fr/ark:/12148/btv1b100938350/f192), rétablis à l'impression. Localité entre Chabour et Tanoub.non identifiée 			"p. [[https://gallica.bnf.fr/ark:/12148/bpt6k55516z/f96|67]]"
الصافه	31.06584	30.72774 	31.06584, 30.72774 	Note : omission des points du tāʾ marbūṭa.	https://www.geonames.org/359897		"p. [[https://gallica.bnf.fr/ark:/12148/bpt6k55516z/f81|56]]"
الضاهريه	30.85159	30.76699 	30.85159, 30.76699 	Note : omission des points du tāʾ marbūṭa.	https://www.geonames.org/361860		"p. [[https://gallica.bnf.fr/ark:/12148/bpt6k55516z/f94|65]]"
القطاه	30.22232	30.97225 	30.22232, 30.97225 	Note : omission des points du tāʾ marbūṭa.	https://www.geonames.org/360571		"p. [[https://gallica.bnf.fr/ark:/12148/bpt6k55516z/f100|71]]"
المنيه جناج	31.01424	30.73501 	31.01424, 30.73501 	Note : omission des points du tāʾ marbūṭa.	https://www.geonames.org/352337		"p. [[https://gallica.bnf.fr/ark:/12148/bpt6k55516z/f81|56]]"
امبابه	30.08333	31.21667 	30.08333, 31.21667 	Note : omission des points du tāʾ marbūṭa.	https://www.geonames.org/355548		"p. [[https://gallica.bnf.fr/ark:/12148/bpt6k55516z/f101|72]]"
بدرشين 	29.85	31.26667 	29.85, 31.26667 		https://www.geonames.org/361473		"p. [[https://gallica.bnf.fr/ark:/12148/bpt6k55516z/f127|98]]"
بطن البقره				Note : omission des points du tāʾ marbūṭa.			"p. [[https://gallica.bnf.fr/ark:/12148/bpt6k55516z/f100|71]]"
بنوفار	30.82961	30.78521 	30.82961, 30.78521 		https://www.geonames.org/358802		"p. [[https://gallica.bnf.fr/ark:/12148/bpt6k55516z/f94|65]]"
بولاق 	30.06041	31.23147 	30.06041, 31.23147 		https://www.geonames.org/358683		"p. [[https://gallica.bnf.fr/ark:/12148/bpt6k55516z/f102|73]]"
جزايه	30.46293	30.84773 	30.46293, 30.84773 	Note : omission des points du tāʾ marbūṭa.	https://www.geonames.org/355015		"p. [[https://gallica.bnf.fr/ark:/12148/bpt6k55516z/f97|68]]"
جناج	30.99904	30.77679 	30.99904, 30.77679 		https://www.geonames.org/355189		"p. [[https://gallica.bnf.fr/ark:/12148/bpt6k55516z/f81|56]]"
جنان	30.99904	30.77679 	30.99904, 30.77679 	Note : forme donnée par la Commission d’Égypte et jugée erronnée par Champollion.	https://www.geonames.org/355189		"p. [[https://gallica.bnf.fr/ark:/12148/bpt6k55516z/f81|56]]"
جيزه	30.00944	31.20861 	30.00944, 31.20861 	Note : omission des points du tāʾ marbūṭa.	https://www.geonames.org/360995	https://www.trismegistos.org/place/716	"p. [[https://gallica.bnf.fr/ark:/12148/bpt6k55516z/f120|91]]"
حبل طرّاه 	29.93333	31.28333 	29.93333, 31.28333 	Note : omission des points du tāʾ marbūṭa et du ǧīm ; la chaddah ne se retrouve pas sur les autres formes connues	https://www.geonames.org/347192		"p. [[https://gallica.bnf.fr/ark:/12148/bpt6k55516z/f125|96]]"
دسوق	31.13259	30.64784 	31.13259, 30.64784 		https://www.geonames.org/358108		"p. [[https://gallica.bnf.fr/ark:/12148/bpt6k55516z/f81|56]]"
دميشلى	30.52257	30.83356 	30.52257, 30.83356 	Note : omission des points souscrits du yāʾ.	https://www.geonames.org/358157		"p. [[https://gallica.bnf.fr/ark:/12148/bpt6k55516z/f97|68]]"
دنسّور	30.60707	30.81904 	30.60707, 30.81904 		https://www.geonames.org/358427		"p. [[https://gallica.bnf.fr/ark:/12148/bpt6k55516z/f96|67]]"
دير التّين	29.98333	31.23333 	29.98333, 31.23333 		https://www.geonames.org/358277		"p. [[https://gallica.bnf.fr/ark:/12148/bpt6k55516z/f120|91]]"
زاوية البغلى	30.6231	30.80501 	30.6231, 30.80501 	Note : le qaf a été erronément remplacé par un ġayn à la composition du texte (https://gallica.bnf.fr/ark:/12148/btv1b100938350/f192).	https://www.geonames.org/346108		"p. [[https://gallica.bnf.fr/ark:/12148/bpt6k55516z/f96|67]]"
زاويه رزن	30.41248	30.85316 	30.41248, 30.85316 	Note : omission des points du tāʾ marbūṭa.	https://www.geonames.org/346076		"p. [[https://gallica.bnf.fr/ark:/12148/bpt6k55516z/f97|68]]"
سالميه	31.18246	30.59483 	31.18246, 30.59483 		https://www.geonames.org/359869		"p. [[https://gallica.bnf.fr/ark:/12148/bpt6k55516z/f79|54]]"
سرسنى				Note : non identifié.			"p. [[https://gallica.bnf.fr/ark:/12148/bpt6k55516z/f96|67]]"
سرنباى	31.19227	30.56978 	31.19227, 30.56978 		https://www.geonames.org/347727		"p. [[https://gallica.bnf.fr/ark:/12148/bpt6k55516z/f79|54]]"
سناباده	31.18544	30.54443 	31.18544, 30.54443 	Note : identification incertaine ; omission des points du tāʾ marbūṭa.	https://www.geonames.org/349667		"p. [[https://gallica.bnf.fr/ark:/12148/bpt6k55516z/f78|53]]"
شام	35	38	35,38		https://www.geonames.org/163843		"p. [[https://gallica.bnf.fr/ark:/12148/bpt6k55516z/f81|56]]"
شبرى الحيمه	30.11585	31.24555 	30.11585, 31.24555 		https://www.geonames.org/9972593		"p. [[https://gallica.bnf.fr/ark:/12148/bpt6k55516z/f101|72]]"
شبشير	30.52777	30.85907 	30.52777, 30.85907 		https://www.geonames.org/349467		"p. [[https://gallica.bnf.fr/ark:/12148/bpt6k55516z/f97|68]]"
شبور	30.80283	30.78085 	30.80283, 30.78085 		https://www.geonames.org/349465		"p. [[https://gallica.bnf.fr/ark:/12148/bpt6k55516z/f95|66]]"
شرافه	31.20117	30.57445 	31.20117, 30.57445 	Note : omission des points du tāʾ marbūṭa.	https://www.geonames.org/352349		"p. [[https://gallica.bnf.fr/ark:/12148/bpt6k55516z/f79|54]]"
شنيسه				Note : omission des points du tāʾ marbūṭa ; non identifié.			"p. [[https://gallica.bnf.fr/ark:/12148/bpt6k55516z/f94|65]]"
صا الخحّار	30.96124	30.76802 	30.96124, 30.76802 		https://www.geonames.org/349983		"p. [[https://gallica.bnf.fr/ark:/12148/bpt6k55516z/f81|56]]"
صُموخرات	31.14503	30.6112 	31.14503, 30.6112 		https://www.geonames.org/347752		"p. [[https://gallica.bnf.fr/ark:/12148/bpt6k55516z/f80|55]]"
صُموُكّرات	31.14503	30.6112 	31.14503, 30.6112 		https://www.geonames.org/347752		"p. [[https://gallica.bnf.fr/ark:/12148/bpt6k55516z/f80|55]]"
طرّانه	30.43518	30.83722 	30.43518, 30.83722 	Note : omission des points du tāʾ marbūṭa.	https://www.geonames.org/359700		"p. [[https://gallica.bnf.fr/ark:/12148/bpt6k55516z/f97|68]]"
طنّاش	30.12679	31.19703	30.12679, 31.19703 		https://www.geonames.org/7926614		"p. [[https://gallica.bnf.fr/ark:/12148/bpt6k55516z/f101|72]]"
طنط	30.78847	31.00192 	30.78847, 31.00192 		https://www.geonames.org/347497		"p. [[https://gallica.bnf.fr/ark:/12148/bpt6k55516z/f95|66]]"
طورّه	29.93333	31.28333 	29.93333, 31.28333 	Note : omission des points du tāʾ marbūṭa ; Champollion lui-même donne ailleurs طرّاه.	https://www.geonames.org/347192		"p. [[https://gallica.bnf.fr/ark:/12148/bpt6k55516z/f121|92]]"
علقام	30.55162	30.81112 	30.55162, 30.81112 		https://www.geonames.org/360619		"p. [[https://gallica.bnf.fr/ark:/12148/bpt6k55516z/f96|67]]"
غودابي				Note : non identifié.			"p. [[https://gallica.bnf.fr/ark:/12148/bpt6k55516z/f94|65]]"
فوه	31.20365	30.54908 	31.20365, 30.54908 	Note : omission des points du tāʾ marbūṭa.	https://www.geonames.org/356806		"p. [[https://gallica.bnf.fr/ark:/12148/bpt6k55516z/f79|54]]"
قبريظ	31.20211	30.58573 	31.20211, 30.58573 		https://www.geonames.org/350849		"p. [[https://gallica.bnf.fr/ark:/12148/bpt6k55516z/f79|54]]"
كفر دوار	31.20211	30.58573 	31.20211, 30.58573 		https://www.geonames.org/350849		"p. [[https://gallica.bnf.fr/ark:/12148/bpt6k55516z/f81|56]]"
كفر شايخ حسن	31.20211	30.58573 	31.20211, 30.58573 		https://www.geonames.org/350849		"p. [[https://gallica.bnf.fr/ark:/12148/bpt6k55516z/f79|54]]"
كفرزيات	30.8248	30.81805 	30.8248, 30.81805 		https://www.geonames.org/354365		"p. [[https://gallica.bnf.fr/ark:/12148/bpt6k55516z/f94|65]]"
كورات	31.14503	30.6112 	31.14503, 30.6112 	Note : forme donnée par la Commission d’Égypte, jugée fautive par Champollion	https://www.geonames.org/347752		"p. [[https://gallica.bnf.fr/ark:/12148/bpt6k55516z/f80|55]]"
كوم شبّاس	31.19621	30.65359 	31.19621, 30.65359 		https://www.geonames.org/349474		"p. [[https://gallica.bnf.fr/ark:/12148/bpt6k55516z/f79|54]]"
لويه	31.1695	30.59856 	31.1695, 30.59856 	Note : omission des points du tāʾ marbūṭa.	https://www.geonames.org/357852		"p. [[https://gallica.bnf.fr/ark:/12148/bpt6k55516z/f79|54]]"
مت راهينه	31.1695	30.59856 	31.1695, 30.59856 	Note : omission des points du tāʾ marbūṭa.	https://www.geonames.org/357852		"p. [[https://gallica.bnf.fr/ark:/12148/bpt6k55516z/f127|98]]"
مجار دّمياط				Note : branche nilotique de Damiette.			"p. [[https://gallica.bnf.fr/ark:/12148/bpt6k55516z/f100|71]]"
محلّة صا	30.98495	30.75117 	30.98495, 30.75117 		https://www.geonames.org/353119		"p. [[https://gallica.bnf.fr/ark:/12148/bpt6k55516z/f81|56]]"
محلّت ابو على	31.09474	30.69539 	31.09474, 30.69539 		https://www.geonames.org/353146		"p. [[https://gallica.bnf.fr/ark:/12148/bpt6k55516z/f81|56]]"
محلّت ملج	31.09474	30.69539 	31.09474, 30.69539 		https://www.geonames.org/353146		"p. [[https://gallica.bnf.fr/ark:/12148/bpt6k55516z/f79|54]]"
منيل الهروس	30.2189	31.02926 	30.2189, 31.02926 		https://www.geonames.org/352844		"p. [[https://gallica.bnf.fr/ark:/12148/bpt6k55516z/f100|71]]"
منيه سلامه	31.08695	30.68832 	31.08695, 30.68832 	Note : omission des points du tāʾ marbūṭa.	https://www.geonames.org/352332		"p. [[https://gallica.bnf.fr/ark:/12148/bpt6k55516z/f81|56]]"
ميت سلامه	30.32131	30.84871 	30.32131, 30.84871 	Note : omission des points du tāʾ marbūṭa.	https://www.geonames.org/359190		"p. [[https://gallica.bnf.fr/ark:/12148/bpt6k55516z/f99|70]]"
ميت شهاله				Note : omission des points du tāʾ marbūṭa ; non identifié.			"p. [[https://gallica.bnf.fr/ark:/12148/bpt6k55516z/f94|65]]"
نادر	30.55	30.85 	30.55, 30.85 		https://www.geonames.org/351695		"p. [[https://gallica.bnf.fr/ark:/12148/bpt6k55516z/f96|67]]"
نخله	30.91124	30.75882 	30.91124, 30.75882 	Note : identification incertaine : la transcription Nekhleh de Champollion ne correspond guère au toponyme actuel.	https://www.geonames.org/351039		"p. [[https://gallica.bnf.fr/ark:/12148/bpt6k55516z/f94|65]]"
واردان	30.31704	30.90672 	30.91124, 30.75882 		https://www.geonames.org/346343		"p. [[https://gallica.bnf.fr/ark:/12148/bpt6k55516z/f99|70]]"
